{
"type": "FeatureCollection",
"name": "data_full",
"features": [
{ "type": "Feature", "properties": { "title": "Polar Connect", "theme": "Infrastructure", "region": "North America" }, "geometry": null },
{ "type": "Feature", "properties": { "title": "Polar Connect", "theme": "Infrastructure", "region": "North-East Asia" }, "geometry": null },
{ "type": "Feature", "properties": { "title": "Polar Connect", "theme": "Infrastructure", "region": "EU Neighbourhood Countries" }, "geometry": null },
{ "type": "Feature", "properties": { "title": "Polar Connect", "theme": "Infrastructure", "region": "Arctic" }, "geometry": null },
{ "type": "Feature", "properties": { "title": "ESIWA +", "theme": "Regulation/Governance/Political", "region": "Indo-Pacific (includes South-East Asia)" }, "geometry": null },
{ "type": "Feature", "properties": { "title": "ESIWA +", "theme": "Regulation/Governance/Political", "region": "North-East Asia" }, "geometry": null },
{ "type": "Feature", "properties": { "title": "ESIWA +", "theme": "Education/Skills/Research", "region": "Indo-Pacific (includes South-East Asia)" }, "geometry": null },
{ "type": "Feature", "properties": { "title": "ESIWA +", "theme": "Education/Skills/Research", "region": "North-East Asia" }, "geometry": null },
{ "type": "Feature", "properties": { "title": "Team Europe Central Asia initiative on digital connectivity", "theme": "Infrastructure", "region": "Central Asia" }, "geometry": null },
{ "type": "Feature", "properties": { "title": "Counter-Terrorism Information Exchange and Criminal Justice Responses II (CT INFLOW II)", "theme": "Cybersecurity/Cybercrime", "region": "MENA" }, "geometry": null },
{ "type": "Feature", "properties": { "title": "Counter-Terrorism Information Exchange and Criminal Justice Responses II (CT INFLOW II)", "theme": "Cybersecurity/Cybercrime", "region": "Sub-Saharan Africa" }, "geometry": null },
{ "type": "Feature", "properties": { "title": "GLACY-e project on Global Action on Cybercrime Enhanced", "theme": "Regulation/Governance/Political", "region": "South America" }, "geometry": null },
{ "type": "Feature", "properties": { "title": "GLACY-e project on Global Action on Cybercrime Enhanced", "theme": "Regulation/Governance/Political", "region": "Indo-Pacific (includes South-East Asia)" }, "geometry": null },
{ "type": "Feature", "properties": { "title": "GLACY-e project on Global Action on Cybercrime Enhanced", "theme": "Regulation/Governance/Political", "region": "Sub-Saharan Africa" }, "geometry": null },
{ "type": "Feature", "properties": { "title": "GLACY-e project on Global Action on Cybercrime Enhanced", "theme": "Cybersecurity/Cybercrime", "region": "South America" }, "geometry": null },
{ "type": "Feature", "properties": { "title": "GLACY-e project on Global Action on Cybercrime Enhanced", "theme": "Cybersecurity/Cybercrime", "region": "Indo-Pacific (includes South-East Asia)" }, "geometry": null },
{ "type": "Feature", "properties": { "title": "GLACY-e project on Global Action on Cybercrime Enhanced", "theme": "Cybersecurity/Cybercrime", "region": "Sub-Saharan Africa" }, "geometry": null },
{ "type": "Feature", "properties": { "title": "Far North Fiber Europe 1.", "theme": "Infrastructure", "region": "North America" }, "geometry": null },
{ "type": "Feature", "properties": { "title": "Far North Fiber Europe 1.", "theme": "Infrastructure", "region": "North-East Asia" }, "geometry": null },
{ "type": "Feature", "properties": { "title": "Far North Fiber Europe 1.", "theme": "Infrastructure", "region": "EU Neighbourhood Countries" }, "geometry": null },
{ "type": "Feature", "properties": { "title": "Far North Fiber Europe 1.", "theme": "Infrastructure", "region": "Arctic" }, "geometry": null },
{ "type": "Feature", "properties": { "title": "Tusass Connect 1,2,3", "theme": "Infrastructure", "region": "North America" }, "geometry": null },
{ "type": "Feature", "properties": { "title": "Tusass Connect 1,2,3", "theme": "Infrastructure", "region": "Arctic" }, "geometry": null },
{ "type": "Feature", "properties": { "title": "Tusass Connect 1,2,3", "theme": "Education/Skills/Research", "region": "North America" }, "geometry": null },
{ "type": "Feature", "properties": { "title": "Tusass Connect 1,2,3", "theme": "Education/Skills/Research", "region": "Arctic" }, "geometry": null },
{ "type": "Feature", "properties": { "title": "European Judicial Cybercrime Network (EJCN)", "theme": "Regulation/Governance/Political", "region": "EU Neighbourhood Countries" }, "geometry": null },
{ "type": "Feature", "properties": { "title": "CyberSEE – Project on enhanced action on cybercrime and electronic evidence in South-East Europe and Türkiye", "theme": "Regulation/Governance/Political", "region": "EU Neighbourhood Countries" }, "geometry": null },
{ "type": "Feature", "properties": { "title": "EU-Western Balkans Digital Dialogue", "theme": "Regulation/Governance/Political", "region": "EU Neighbourhood Countries" }, "geometry": null },
{ "type": "Feature", "properties": { "title": "EU-Ukraine Cyber Dialogue", "theme": "Regulation/Governance/Political", "region": "EU Neighbourhood Countries" }, "geometry": null },
{ "type": "Feature", "properties": { "title": "Growth Plan for the Western Balkans", "theme": "Regulation/Governance/Political", "region": "EU Neighbourhood Countries" }, "geometry": null },
{ "type": "Feature", "properties": { "title": "Reform and Growth Facility for Moldova", "theme": "Regulation/Governance/Political", "region": "EU Neighbourhood Countries" }, "geometry": null },
{ "type": "Feature", "properties": { "title": "DT4UA", "theme": "Infrastructure", "region": "EU Neighbourhood Countries" }, "geometry": null },
{ "type": "Feature", "properties": { "title": "DT4UA", "theme": "Regulation/Governance/Political", "region": "EU Neighbourhood Countries" }, "geometry": null },
{ "type": "Feature", "properties": { "title": "Alignment with the EU 5G Cybersecurity Toolbox", "theme": "Regulation/Governance/Political", "region": "EU Neighbourhood Countries" }, "geometry": null },
{ "type": "Feature", "properties": { "title": "Extend the EU’s Cyber-Reserve to Ukraine and the Republic of Moldova", "theme": "Regulation/Governance/Political", "region": "EU Neighbourhood Countries" }, "geometry": null },
{ "type": "Feature", "properties": { "title": "Ukraine Facility", "theme": "Infrastructure", "region": "EU Neighbourhood Countries" }, "geometry": null },
{ "type": "Feature", "properties": { "title": "Ukraine Facility", "theme": "Cybersecurity/Cybercrime", "region": "EU Neighbourhood Countries" }, "geometry": null },
{ "type": "Feature", "properties": { "title": "EU-Moldova Security & Defence Partnership", "theme": "Cybersecurity/Cybercrime", "region": "EU Neighbourhood Countries" }, "geometry": null },
{ "type": "Feature", "properties": { "title": "EU-Moldova Security & Defence Partnership", "theme": "Security/Military/Defence", "region": "EU Neighbourhood Countries" }, "geometry": null },
{ "type": "Feature", "properties": { "title": "EU-Albania Security & Defence Partnership", "theme": "Cybersecurity/Cybercrime", "region": "EU Neighbourhood Countries" }, "geometry": null },
{ "type": "Feature", "properties": { "title": "EU-Albania Security & Defence Partnership", "theme": "Security/Military/Defence", "region": "EU Neighbourhood Countries" }, "geometry": null },
{ "type": "Feature", "properties": { "title": "EGOV4Ukraine", "theme": "Regulation/Governance/Political", "region": "EU Neighbourhood Countries" }, "geometry": null },
{ "type": "Feature", "properties": { "title": "EU-North Macedonia Security & Defence Partnership", "theme": "Cybersecurity/Cybercrime", "region": "EU Neighbourhood Countries" }, "geometry": null },
{ "type": "Feature", "properties": { "title": "EU-North Macedonia Security & Defence Partnership", "theme": "Security/Military/Defence", "region": "EU Neighbourhood Countries" }, "geometry": null },
{ "type": "Feature", "properties": { "title": "CyberEast+", "theme": "Regulation/Governance/Political", "region": "EU Neighbourhood Countries" }, "geometry": null },
{ "type": "Feature", "properties": { "title": "Editnet - Inisght into tomorrow", "theme": "Regulation/Governance/Political", "region": "EU Neighbourhood Countries" }, "geometry": null },
{ "type": "Feature", "properties": { "title": "Global human rights-based implementation of online platform laws", "theme": "Regulation/Governance/Political", "region": "Global" }, "geometry": null },
{ "type": "Feature", "properties": { "title": "Global human rights-based implementation of online platform laws", "theme": "Regulation/Governance/Political", "region": "North America" }, "geometry": null },
{ "type": "Feature", "properties": { "title": "Global human rights-based implementation of online platform laws", "theme": "Regulation/Governance/Political", "region": "South America" }, "geometry": null },
{ "type": "Feature", "properties": { "title": "Global human rights-based implementation of online platform laws", "theme": "Regulation/Governance/Political", "region": "EU Neighbourhood Countries" }, "geometry": null },
{ "type": "Feature", "properties": { "title": "EU-UK Cyber Dialogue", "theme": "Regulation/Governance/Political", "region": "EU Neighbourhood Countries" }, "geometry": null },
{ "type": "Feature", "properties": { "title": "EU-Norway Security & Defence Partnership", "theme": "Security/Military/Defence", "region": "EU Neighbourhood Countries" }, "geometry": null },
{ "type": "Feature", "properties": { "title": "EU-UK Security & Defence Partnership", "theme": "Security/Military/Defence", "region": "EU Neighbourhood Countries" }, "geometry": null },
{ "type": "Feature", "properties": { "title": "EU-UK FTA", "theme": "Regulation/Governance/Political", "region": "EU Neighbourhood Countries" }, "geometry": null },
{ "type": "Feature", "properties": { "title": "Black Sea Digital Connectivity Submarine Digital Cable", "theme": "Infrastructure", "region": "EU Neighbourhood Countries" }, "geometry": null },
{ "type": "Feature", "properties": { "title": "WiFi for Western Balkans (WiFi4WB)", "theme": "Infrastructure", "region": "EU Neighbourhood Countries" }, "geometry": null },
{ "type": "Feature", "properties": { "title": "AI Antennas", "theme": "Infrastructure", "region": "EU Neighbourhood Countries" }, "geometry": null },
{ "type": "Feature", "properties": { "title": "Administrative arrangement with Ofcom (UK/Norther Ireland) on enforcement of social media regulations", "theme": "Regulation/Governance/Political", "region": "EU Neighbourhood Countries" }, "geometry": null },
{ "type": "Feature", "properties": { "title": "Tallinn Mechanism", "theme": "Cybersecurity/Cybercrime", "region": "EU Neighbourhood Countries" }, "geometry": null },
{ "type": "Feature", "properties": { "title": "Tallinn Mechanism", "theme": "Security/Military/Defence", "region": "EU Neighbourhood Countries" }, "geometry": null },
{ "type": "Feature", "properties": { "title": "Western Balkans Cyber Capacity Campus", "theme": "Education/Skills/Research", "region": "EU Neighbourhood Countries" }, "geometry": null },
{ "type": "Feature", "properties": { "title": "EU4Digital: Connecting Research and Education Communities (EaPConnect)", "theme": "Infrastructure", "region": "EU Neighbourhood Countries" }, "geometry": null },
{ "type": "Feature", "properties": { "title": "EU4Digital: Connecting Research and Education Communities (EaPConnect)", "theme": "Education/Skills/Research", "region": "EU Neighbourhood Countries" }, "geometry": null },
{ "type": "Feature", "properties": { "title": "REDI: Rural Empowerment through Digital Inclusion", "theme": "Infrastructure", "region": "EU Neighbourhood Countries" }, "geometry": null },
{ "type": "Feature", "properties": { "title": "REDI: Rural Empowerment through Digital Inclusion", "theme": "Education/Skills/Research", "region": "EU Neighbourhood Countries" }, "geometry": null },
{ "type": "Feature", "properties": { "title": "EU4Security Moldova", "theme": "Infrastructure", "region": "EU Neighbourhood Countries" }, "geometry": null },
{ "type": "Feature", "properties": { "title": "EU4Security Moldova", "theme": "Education/Skills/Research", "region": "EU Neighbourhood Countries" }, "geometry": null },
{ "type": "Feature", "properties": { "title": "Digital University – Open Ukrainian Initiative (DigiUni) project", "theme": "Education/Skills/Research", "region": "EU Neighbourhood Countries" }, "geometry": null },
{ "type": "Feature", "properties": { "title": "SKYE Net -Skills and Knowledge for Youth Empowerment Network", "theme": "Education/Skills/Research", "region": "EU Neighbourhood Countries" }, "geometry": null },
{ "type": "Feature", "properties": { "title": "Upskilling digital competences and career management skills of disadvantaged youth in Georgia, Armenia and Moldova", "theme": "Education/Skills/Research", "region": "EU Neighbourhood Countries" }, "geometry": null },
{ "type": "Feature", "properties": { "title": "EU Defence Innovation Scheme (EUDIS)", "theme": "Education/Skills/Research", "region": "EU Neighbourhood Countries" }, "geometry": null },
{ "type": "Feature", "properties": { "title": "Hub for European Defence Innovation (HEDI)", "theme": "Education/Skills/Research", "region": "EU Neighbourhood Countries" }, "geometry": null },
{ "type": "Feature", "properties": { "title": "Hub for European Defence Innovation (HEDI)", "theme": "Security/Military/Defence", "region": "EU Neighbourhood Countries" }, "geometry": null },
{ "type": "Feature", "properties": { "title": "European Digital innovation Hubs", "theme": "Education/Skills/Research", "region": "EU Neighbourhood Countries" }, "geometry": null },
{ "type": "Feature", "properties": { "title": "EU4Digital Facility Phase I & II", "theme": "Regulation/Governance/Political", "region": "EU Neighbourhood Countries" }, "geometry": null },
{ "type": "Feature", "properties": { "title": "EU4Digital Facility Phase I & II", "theme": "Education/Skills/Research", "region": "EU Neighbourhood Countries" }, "geometry": null },
{ "type": "Feature", "properties": { "title": "CyberBalkans – EU Support to Cyber Capacity Building in the Western Balkans", "theme": "Regulation/Governance/Political", "region": "EU Neighbourhood Countries" }, "geometry": null },
{ "type": "Feature", "properties": { "title": "CyberBalkans – EU Support to Cyber Capacity Building in the Western Balkans", "theme": "Education/Skills/Research", "region": "EU Neighbourhood Countries" }, "geometry": null },
{ "type": "Feature", "properties": { "title": "CyberBalkans – EU Support to Cyber Capacity Building in the Western Balkans", "theme": "Cybersecurity/Cybercrime", "region": "EU Neighbourhood Countries" }, "geometry": null },
{ "type": "Feature", "properties": { "title": "EU4DigitalUA: capacity building, communication and data protection for Ukraine", "theme": "Regulation/Governance/Political", "region": "EU Neighbourhood Countries" }, "geometry": null },
{ "type": "Feature", "properties": { "title": "EU4DigitalUA: capacity building, communication and data protection for Ukraine", "theme": "Education/Skills/Research", "region": "EU Neighbourhood Countries" }, "geometry": null },
{ "type": "Feature", "properties": { "title": "Training and Operational Partnership Against Organised Crime II (TOPCOP II)", "theme": "Education/Skills/Research", "region": "EU Neighbourhood Countries" }, "geometry": null },
{ "type": "Feature", "properties": { "title": "Western Balkans Partnership against Crime and Terrorism II (WB PACT II)", "theme": "Education/Skills/Research", "region": "EU Neighbourhood Countries" }, "geometry": null },
{ "type": "Feature", "properties": { "title": "Hiroshima AI Process", "theme": "Regulation/Governance/Political", "region": "Global" }, "geometry": null },
{ "type": "Feature", "properties": { "title": "Choose Europe Initiative", "theme": "Regulation/Governance/Political", "region": "Global" }, "geometry": null },
{ "type": "Feature", "properties": { "title": "Choose Europe Initiative", "theme": "Education/Skills/Research", "region": "Global" }, "geometry": null },
{ "type": "Feature", "properties": { "title": "World Semiconductor Council – Government / Authorities Meeting on Semiconductors (GAMS)", "theme": "Regulation/Governance/Political", "region": "Global" }, "geometry": null },
{ "type": "Feature", "properties": { "title": "Global Gateway Forum", "theme": "Regulation/Governance/Political", "region": "Global" }, "geometry": null },
{ "type": "Feature", "properties": { "title": "Establishment of a Digital Partnership Network", "theme": "Regulation/Governance/Political", "region": "Global" }, "geometry": null },
{ "type": "Feature", "properties": { "title": "Development of European Interoperability Framework", "theme": "Regulation/Governance/Political", "region": "Global" }, "geometry": null },
{ "type": "Feature", "properties": { "title": "Digital Europe Programme", "theme": "Education/Skills/Research", "region": "Global" }, "geometry": null },
{ "type": "Feature", "properties": { "title": "Horizon Europe", "theme": "Education/Skills/Research", "region": "Global" }, "geometry": null },
{ "type": "Feature", "properties": { "title": "AI & Energy (EU-ROK Clean Energy Ministerial)", "theme": "Regulation/Governance/Political", "region": "Global" }, "geometry": null },
{ "type": "Feature", "properties": { "title": "AI & Energy (EU-ROK Clean Energy Ministerial)", "theme": "Regulation/Governance/Political", "region": "North-East Asia" }, "geometry": null },
{ "type": "Feature", "properties": { "title": "IRIS² Connectivity", "theme": "Infrastructure", "region": "Global" }, "geometry": null },
{ "type": "Feature", "properties": { "title": "Tallinn Cyber Diplomacy Summer School", "theme": "Regulation/Governance/Political", "region": "Global" }, "geometry": null },
{ "type": "Feature", "properties": { "title": "Global Initiative on the Future of the Internet (GIFI)", "theme": "Regulation/Governance/Political", "region": "Global" }, "geometry": null },
{ "type": "Feature", "properties": { "title": "Tanzania, Kenya, Nigeria Informal Digital Hub", "theme": "Regulation/Governance/Political", "region": "Sub-Saharan Africa" }, "geometry": null },
{ "type": "Feature", "properties": { "title": "EU Cyber Direct - The EU Cyber Diplomacy Initiative", "theme": "Regulation/Governance/Political", "region": "Global" }, "geometry": null },
{ "type": "Feature", "properties": { "title": "EU Cyber Direct - The EU Cyber Diplomacy Initiative", "theme": "Education/Skills/Research", "region": "Global" }, "geometry": null },
{ "type": "Feature", "properties": { "title": "EU CyberNet", "theme": "Education/Skills/Research", "region": "Global" }, "geometry": null },
{ "type": "Feature", "properties": { "title": "G7 semiconductor Point of Contact group", "theme": "Regulation/Governance/Political", "region": "Global" }, "geometry": null },
{ "type": "Feature", "properties": { "title": "G7 Quantum Technology Working Group", "theme": "Regulation/Governance/Political", "region": "Global" }, "geometry": null },
{ "type": "Feature", "properties": { "title": "Global Digital Health Certification Network (GDHCN)", "theme": "Infrastructure", "region": "Global" }, "geometry": null },
{ "type": "Feature", "properties": { "title": "Advancing the UN Framework of Responsible State Behaviour in Cyberspace: Contribution to UN OEWG ICT security/ UN Global Mechanism", "theme": "Regulation/Governance/Political", "region": "Global" }, "geometry": null },
{ "type": "Feature", "properties": { "title": "Engagement International Counter Ransomware Initiative (CRI)", "theme": "Regulation/Governance/Political", "region": "Global" }, "geometry": null },
{ "type": "Feature", "properties": { "title": "Mutual recognition agreements (MRA) regarding product cybersecurity", "theme": "Regulation/Governance/Political", "region": "Global" }, "geometry": null },
{ "type": "Feature", "properties": { "title": "Mutual recognition agreements (MRA) regarding product cybersecurity", "theme": "Cybersecurity/Cybercrime", "region": "Global" }, "geometry": null },
{ "type": "Feature", "properties": { "title": "Global Partnership on AI and OECD", "theme": "Regulation/Governance/Political", "region": "Global" }, "geometry": null },
{ "type": "Feature", "properties": { "title": "G7 Cybersecurity Working Group", "theme": "Regulation/Governance/Political", "region": "Global" }, "geometry": null },
{ "type": "Feature", "properties": { "title": "Support program for digital transformation of Moldova", "theme": "Regulation/Governance/Political", "region": "EU Neighbourhood Countries" }, "geometry": null },
{ "type": "Feature", "properties": { "title": "Support program for digital transformation of Moldova", "theme": "Education/Skills/Research", "region": "EU Neighbourhood Countries" }, "geometry": null },
{ "type": "Feature", "properties": { "title": "EU election observation missions (EOM) social media observation", "theme": "Regulation/Governance/Political", "region": "Global" }, "geometry": null },
{ "type": "Feature", "properties": { "title": "Advance partnerships to bolster resilience against FIMI", "theme": "Regulation/Governance/Political", "region": "Global" }, "geometry": null },
{ "type": "Feature", "properties": { "title": "Promote the Open Internet Stack", "theme": "Regulation/Governance/Political", "region": "Global" }, "geometry": null },
{ "type": "Feature", "properties": { "title": "Follow-up and review of the implementation of the Global Digital Compact (GDC) commitments", "theme": "Regulation/Governance/Political", "region": "Global" }, "geometry": null },
{ "type": "Feature", "properties": { "title": "Cross-Border Access to Electronic Evidence SIRIUS III", "theme": "Regulation/Governance/Political", "region": "Global" }, "geometry": null },
{ "type": "Feature", "properties": { "title": "EU-Smart Africa Adminsitrative Agreement", "theme": "Regulation/Governance/Political", "region": "Sub-Saharan Africa" }, "geometry": null },
{ "type": "Feature", "properties": { "title": "EU-Australia Digital Dialogue", "theme": "Regulation/Governance/Political", "region": "Indo-Pacific (includes South-East Asia)" }, "geometry": null },
{ "type": "Feature", "properties": { "title": "EU-India Cyber Dialogue", "theme": "Regulation/Governance/Political", "region": "Indo-Pacific (includes South-East Asia)" }, "geometry": null },
{ "type": "Feature", "properties": { "title": "EU-India TTC", "theme": "Regulation/Governance/Political", "region": "Indo-Pacific (includes South-East Asia)" }, "geometry": null },
{ "type": "Feature", "properties": { "title": "EU-ASEAN Sustainable Connectivity Package (SCOPE) Investment Facility", "theme": "Infrastructure", "region": "Indo-Pacific (includes South-East Asia)" }, "geometry": null },
{ "type": "Feature", "properties": { "title": "EU-ASEAN Sustainable Connectivity Package (SCOPE) Investment Facility", "theme": "Regulation/Governance/Political", "region": "Indo-Pacific (includes South-East Asia)" }, "geometry": null },
{ "type": "Feature", "properties": { "title": "SCOPE Digital: Earth Observation services platform for Southeast Asia", "theme": "Infrastructure", "region": "Indo-Pacific (includes South-East Asia)" }, "geometry": null },
{ "type": "Feature", "properties": { "title": "SCOPE Digital: Earth Observation services platform for Southeast Asia", "theme": "Education/Skills/Research", "region": "Indo-Pacific (includes South-East Asia)" }, "geometry": null },
{ "type": "Feature", "properties": { "title": "EU-Singapore AI Safety Cooperation Administrative Arrangement", "theme": "Regulation/Governance/Political", "region": "Indo-Pacific (includes South-East Asia)" }, "geometry": null },
{ "type": "Feature", "properties": { "title": "EU-Singapore AI Safety Cooperation Administrative Arrangement", "theme": "Education/Skills/Research", "region": "Indo-Pacific (includes South-East Asia)" }, "geometry": null },
{ "type": "Feature", "properties": { "title": "Memorandum of Understanding on semiconductors with India", "theme": "Regulation/Governance/Political", "region": "Indo-Pacific (includes South-East Asia)" }, "geometry": null },
{ "type": "Feature", "properties": { "title": "Memorandum of Understanding on semiconductors with India", "theme": "Education/Skills/Research", "region": "Indo-Pacific (includes South-East Asia)" }, "geometry": null },
{ "type": "Feature", "properties": { "title": "EU-Singapore Digital Partnership", "theme": "Regulation/Governance/Political", "region": "Indo-Pacific (includes South-East Asia)" }, "geometry": null },
{ "type": "Feature", "properties": { "title": "Philippines Digital Economy Package", "theme": "Infrastructure", "region": "Indo-Pacific (includes South-East Asia)" }, "geometry": null },
{ "type": "Feature", "properties": { "title": "Philippines Digital Economy Package", "theme": "Regulation/Governance/Political", "region": "Indo-Pacific (includes South-East Asia)" }, "geometry": null },
{ "type": "Feature", "properties": { "title": "6G-IA and TAICS MoU", "theme": "Regulation/Governance/Political", "region": "North-East Asia" }, "geometry": null },
{ "type": "Feature", "properties": { "title": "6G-IA and TAICS MoU", "theme": "Education/Skills/Research", "region": "North-East Asia" }, "geometry": null },
{ "type": "Feature", "properties": { "title": "EU-Indonesia FTA", "theme": "Regulation/Governance/Political", "region": "Indo-Pacific (includes South-East Asia)" }, "geometry": null },
{ "type": "Feature", "properties": { "title": "EU-Indonesia FTA", "theme": "Cybersecurity/Cybercrime", "region": "Indo-Pacific (includes South-East Asia)" }, "geometry": null },
{ "type": "Feature", "properties": { "title": "EU-New Zealand FTA", "theme": "Regulation/Governance/Political", "region": "Indo-Pacific (includes South-East Asia)" }, "geometry": null },
{ "type": "Feature", "properties": { "title": "Boosting digital connectivity in the Pacific", "theme": "Infrastructure", "region": "Indo-Pacific (includes South-East Asia)" }, "geometry": null },
{ "type": "Feature", "properties": { "title": "Connectivity Revolution: Transforming Lives in Bangladesh", "theme": "Infrastructure", "region": "Indo-Pacific (includes South-East Asia)" }, "geometry": null },
{ "type": "Feature", "properties": { "title": "EU Copernicus Earth Observation programme in the Philippines (CopPhil)", "theme": "Infrastructure", "region": "Indo-Pacific (includes South-East Asia)" }, "geometry": null },
{ "type": "Feature", "properties": { "title": "EU Copernicus Earth Observation programme in the Philippines (CopPhil)", "theme": "Education/Skills/Research", "region": "Indo-Pacific (includes South-East Asia)" }, "geometry": null },
{ "type": "Feature", "properties": { "title": "Nusantara-Indonesia", "theme": "Infrastructure", "region": "Indo-Pacific (includes South-East Asia)" }, "geometry": null },
{ "type": "Feature", "properties": { "title": "Expansion of SiC Power Fab to worlds largest 200-mm-semiconductor production plant in Malaysia", "theme": "Infrastructure", "region": "Indo-Pacific (includes South-East Asia)" }, "geometry": null },
{ "type": "Feature", "properties": { "title": "Administrative arrangement with Australian eSafety Commissioner on enforcement of social media regulations", "theme": "Regulation/Governance/Political", "region": "Indo-Pacific (includes South-East Asia)" }, "geometry": null },
{ "type": "Feature", "properties": { "title": "GANANA Project", "theme": "Education/Skills/Research", "region": "Indo-Pacific (includes South-East Asia)" }, "geometry": null },
{ "type": "Feature", "properties": { "title": "SCOPE (EU-ASEAN Sustainable Connectivity Package) Digital", "theme": "Infrastructure", "region": "Indo-Pacific (includes South-East Asia)" }, "geometry": null },
{ "type": "Feature", "properties": { "title": "SCOPE (EU-ASEAN Sustainable Connectivity Package) Digital", "theme": "Education/Skills/Research", "region": "Indo-Pacific (includes South-East Asia)" }, "geometry": null },
{ "type": "Feature", "properties": { "title": "India-EU Startup Partnership", "theme": "Education/Skills/Research", "region": "Indo-Pacific (includes South-East Asia)" }, "geometry": null },
{ "type": "Feature", "properties": { "title": "India-EU Intent of Cooperation (IoC) on High-Performance Computing (HPC)", "theme": "Education/Skills/Research", "region": "Indo-Pacific (includes South-East Asia)" }, "geometry": null },
{ "type": "Feature", "properties": { "title": "India-EU Space Dialogue", "theme": "Infrastructure", "region": "Indo-Pacific (includes South-East Asia)" }, "geometry": null },
{ "type": "Feature", "properties": { "title": "India-EU Space Dialogue", "theme": "Education/Skills/Research", "region": "Indo-Pacific (includes South-East Asia)" }, "geometry": null },
{ "type": "Feature", "properties": { "title": "India-EU Administrative Arrangement on Advanced Electronic Signatures and Seals.", "theme": "Infrastructure", "region": "Indo-Pacific (includes South-East Asia)" }, "geometry": null },
{ "type": "Feature", "properties": { "title": "India-EU Security and Defence Partnership", "theme": "Security/Military/Defence", "region": "Indo-Pacific (includes South-East Asia)" }, "geometry": null },
{ "type": "Feature", "properties": { "title": "India-EU Security of Information Agreement", "theme": "Cybersecurity/Cybercrime", "region": "Indo-Pacific (includes South-East Asia)" }, "geometry": null },
{ "type": "Feature", "properties": { "title": "India - EU Defence Industry Forum", "theme": "Cybersecurity/Cybercrime", "region": "Indo-Pacific (includes South-East Asia)" }, "geometry": null },
{ "type": "Feature", "properties": { "title": "India - EU Defence Industry Forum", "theme": "Security/Military/Defence", "region": "Indo-Pacific (includes South-East Asia)" }, "geometry": null },
{ "type": "Feature", "properties": { "title": "EU-India Business Forum", "theme": "Education/Skills/Research", "region": "Indo-Pacific (includes South-East Asia)" }, "geometry": null },
{ "type": "Feature", "properties": { "title": "EU-India Comprehensive Framework of Cooperation on Mobility", "theme": "Education/Skills/Research", "region": "Indo-Pacific (includes South-East Asia)" }, "geometry": null },
{ "type": "Feature", "properties": { "title": "Euromed Police", "theme": "Education/Skills/Research", "region": "MENA" }, "geometry": null },
{ "type": "Feature", "properties": { "title": "Euromed Police", "theme": "Cybersecurity/Cybercrime", "region": "MENA" }, "geometry": null },
{ "type": "Feature", "properties": { "title": "CyberSouth+", "theme": "Infrastructure", "region": "MENA" }, "geometry": null },
{ "type": "Feature", "properties": { "title": "CyberSouth+", "theme": "Regulation/Governance/Political", "region": "MENA" }, "geometry": null },
{ "type": "Feature", "properties": { "title": "CyberSouth+", "theme": "Education/Skills/Research", "region": "MENA" }, "geometry": null },
{ "type": "Feature", "properties": { "title": "CyberSouth+", "theme": "Cybersecurity/Cybercrime", "region": "MENA" }, "geometry": null },
{ "type": "Feature", "properties": { "title": "EU-Jordan Comprehensive and Strategic Partnership", "theme": "Regulation/Governance/Political", "region": "MENA" }, "geometry": null },
{ "type": "Feature", "properties": { "title": "EU-Tunisia Comprehensive and Strategic Partnership", "theme": "Regulation/Governance/Political", "region": "MENA" }, "geometry": null },
{ "type": "Feature", "properties": { "title": "EU-Egypt Comprehensive and Strategic Partnership", "theme": "Regulation/Governance/Political", "region": "MENA" }, "geometry": null },
{ "type": "Feature", "properties": { "title": "MEDUSA Submarine Cable", "theme": "Infrastructure", "region": "MENA" }, "geometry": null },
{ "type": "Feature", "properties": { "title": "EU Tech Business offer in the New Pact for the Mediterranean", "theme": "Regulation/Governance/Political", "region": "MENA" }, "geometry": null },
{ "type": "Feature", "properties": { "title": "EU-Africa-India digital corridor (Blue-Raman)", "theme": "Infrastructure", "region": "Indo-Pacific (includes South-East Asia)" }, "geometry": null },
{ "type": "Feature", "properties": { "title": "EU-Africa-India digital corridor (Blue-Raman)", "theme": "Infrastructure", "region": "MENA" }, "geometry": null },
{ "type": "Feature", "properties": { "title": "EU-United States Cyber Dialogue", "theme": "Regulation/Governance/Political", "region": "North America" }, "geometry": null },
{ "type": "Feature", "properties": { "title": "EU-US TTC", "theme": "Regulation/Governance/Political", "region": "North America" }, "geometry": null },
{ "type": "Feature", "properties": { "title": "MIRAQLS project", "theme": "Education/Skills/Research", "region": "North America" }, "geometry": null },
{ "type": "Feature", "properties": { "title": "FoQaCiA  project", "theme": "Education/Skills/Research", "region": "North America" }, "geometry": null },
{ "type": "Feature", "properties": { "title": "HYPERSPACE project", "theme": "Education/Skills/Research", "region": "North America" }, "geometry": null },
{ "type": "Feature", "properties": { "title": "EU-Canada Digital Partnership", "theme": "Regulation/Governance/Political", "region": "North America" }, "geometry": null },
{ "type": "Feature", "properties": { "title": "ENISA-CISA Working Arrangement", "theme": "Cybersecurity/Cybercrime", "region": "North America" }, "geometry": null },
{ "type": "Feature", "properties": { "title": "EU-India-Canada Cooperation Arrangement on AI Safety", "theme": "Regulation/Governance/Political", "region": "North America" }, "geometry": null },
{ "type": "Feature", "properties": { "title": "EU-India-Canada Cooperation Arrangement on AI Safety", "theme": "Regulation/Governance/Political", "region": "Indo-Pacific (includes South-East Asia)" }, "geometry": null },
{ "type": "Feature", "properties": { "title": "Semiconductors Early warning mechanism on supply chain & public subsidies", "theme": "Education/Skills/Research", "region": "North America" }, "geometry": null },
{ "type": "Feature", "properties": { "title": "Semiconductors Early warning mechanism on supply chain & public subsidies", "theme": "Education/Skills/Research", "region": "North-East Asia" }, "geometry": null },
{ "type": "Feature", "properties": { "title": "EU-Japan Cyber Dialogue", "theme": "Cybersecurity/Cybercrime", "region": "North-East Asia" }, "geometry": null },
{ "type": "Feature", "properties": { "title": "EU-Republic of Korea Cyber Dialogue", "theme": "Cybersecurity/Cybercrime", "region": "North-East Asia" }, "geometry": null },
{ "type": "Feature", "properties": { "title": "EU-Japan Digital Partnership", "theme": "Regulation/Governance/Political", "region": "North-East Asia" }, "geometry": null },
{ "type": "Feature", "properties": { "title": "EU-Republic of Korea Digital Partnership", "theme": "Regulation/Governance/Political", "region": "North-East Asia" }, "geometry": null },
{ "type": "Feature", "properties": { "title": "EU-Japan Security & Defence Partnership", "theme": "Cybersecurity/Cybercrime", "region": "North-East Asia" }, "geometry": null },
{ "type": "Feature", "properties": { "title": "EU-Japan Security & Defence Partnership", "theme": "Security/Military/Defence", "region": "North-East Asia" }, "geometry": null },
{ "type": "Feature", "properties": { "title": "EU-South Korea Security & Defence Partnership", "theme": "Cybersecurity/Cybercrime", "region": "North-East Asia" }, "geometry": null },
{ "type": "Feature", "properties": { "title": "EU-South Korea Security & Defence Partnership", "theme": "Security/Military/Defence", "region": "North-East Asia" }, "geometry": null },
{ "type": "Feature", "properties": { "title": "6G research and innovation aligned 2026 call", "theme": "Education/Skills/Research", "region": "Indo-Pacific (includes South-East Asia)" }, "geometry": null },
{ "type": "Feature", "properties": { "title": "6G research and innovation cooperation on 6G AI powered RAN with Japan and South Korea", "theme": "Education/Skills/Research", "region": "North-East Asia" }, "geometry": null },
{ "type": "Feature", "properties": { "title": "EU-Japan Quantum Computing Collaboration", "theme": "Education/Skills/Research", "region": "North-East Asia" }, "geometry": null },
{ "type": "Feature", "properties": { "title": "EU-Republic of Korea Quantum Technology Calls", "theme": "Education/Skills/Research", "region": "North-East Asia" }, "geometry": null },
{ "type": "Feature", "properties": { "title": "6G Arrow", "theme": "Education/Skills/Research", "region": "North-East Asia" }, "geometry": null },
{ "type": "Feature", "properties": { "title": "6G Mirai", "theme": "Education/Skills/Research", "region": "North-East Asia" }, "geometry": null },
{ "type": "Feature", "properties": { "title": "EU-Republic of Korea Digital Trade Agreement", "theme": "Regulation/Governance/Political", "region": "North-East Asia" }, "geometry": null },
{ "type": "Feature", "properties": { "title": "EU-Singapore Digital Trade Agreement", "theme": "Regulation/Governance/Political", "region": "Indo-Pacific (includes South-East Asia)" }, "geometry": null },
{ "type": "Feature", "properties": { "title": "EU-Japan Economic Partnership Agreement", "theme": "Regulation/Governance/Political", "region": "North-East Asia" }, "geometry": null },
{ "type": "Feature", "properties": { "title": "HANAMI Project", "theme": "Education/Skills/Research", "region": "North-East Asia" }, "geometry": null },
{ "type": "Feature", "properties": { "title": "EU4DigitalUA", "theme": "Infrastructure", "region": "EU Neighbourhood Countries" }, "geometry": null },
{ "type": "Feature", "properties": { "title": "EU4DigitalUA", "theme": "Regulation/Governance/Political", "region": "EU Neighbourhood Countries" }, "geometry": null },
{ "type": "Feature", "properties": { "title": "EU4DigitalUA", "theme": "Education/Skills/Research", "region": "EU Neighbourhood Countries" }, "geometry": null },
{ "type": "Feature", "properties": { "title": "EU4DigitalUA", "theme": "Cybersecurity/Cybercrime", "region": "EU Neighbourhood Countries" }, "geometry": null },
{ "type": "Feature", "properties": { "title": "Administrative Agreement for the Azerbaijan Rapid Technical Assistance Facility (AZTAF)", "theme": "Regulation/Governance/Political", "region": "EU Neighbourhood Countries" }, "geometry": null },
{ "type": "Feature", "properties": { "title": "Administrative Agreement for the Azerbaijan Rapid Technical Assistance Facility (AZTAF)", "theme": "Education/Skills/Research", "region": "EU Neighbourhood Countries" }, "geometry": null },
{ "type": "Feature", "properties": { "title": "GovTech4All", "theme": "Regulation/Governance/Political", "region": "EU Neighbourhood Countries" }, "geometry": null },
{ "type": "Feature", "properties": { "title": "GovTech4All", "theme": "Education/Skills/Research", "region": "EU Neighbourhood Countries" }, "geometry": null },
{ "type": "Feature", "properties": { "title": "Improving cyber resilience in Eastern Partnership countries", "theme": "Regulation/Governance/Political", "region": "EU Neighbourhood Countries" }, "geometry": null },
{ "type": "Feature", "properties": { "title": "Improving cyber resilience in Eastern Partnership countries", "theme": "Education/Skills/Research", "region": "EU Neighbourhood Countries" }, "geometry": null },
{ "type": "Feature", "properties": { "title": "“Knowledge Hub Digital” facility (KHD)", "theme": "Regulation/Governance/Political", "region": "MENA" }, "geometry": null },
{ "type": "Feature", "properties": { "title": "“Knowledge Hub Digital” facility (KHD)", "theme": "Regulation/Governance/Political", "region": "Sub-Saharan Africa" }, "geometry": null },
{ "type": "Feature", "properties": { "title": "“Knowledge Hub Digital” facility (KHD)", "theme": "Regulation/Governance/Political", "region": "EU Neighbourhood Countries" }, "geometry": null },
{ "type": "Feature", "properties": { "title": "“Knowledge Hub Digital” facility (KHD)", "theme": "Education/Skills/Research", "region": "MENA" }, "geometry": null },
{ "type": "Feature", "properties": { "title": "“Knowledge Hub Digital” facility (KHD)", "theme": "Education/Skills/Research", "region": "Sub-Saharan Africa" }, "geometry": null },
{ "type": "Feature", "properties": { "title": "“Knowledge Hub Digital” facility (KHD)", "theme": "Education/Skills/Research", "region": "EU Neighbourhood Countries" }, "geometry": null },
{ "type": "Feature", "properties": { "title": "EU-Brazil Digital Dialogue", "theme": "Regulation/Governance/Political", "region": "South America" }, "geometry": null },
{ "type": "Feature", "properties": { "title": "EU-Brazil Cyber Dialogue", "theme": "Cybersecurity/Cybercrime", "region": "South America" }, "geometry": null },
{ "type": "Feature", "properties": { "title": "EU-Mexico Digital Dialogue", "theme": "Regulation/Governance/Political", "region": "South America" }, "geometry": null },
{ "type": "Feature", "properties": { "title": "EU-Argentina Digital Dialogue", "theme": "Regulation/Governance/Political", "region": "South America" }, "geometry": null },
{ "type": "Feature", "properties": { "title": "Colombia  and Brazil Informal Digital Hub", "theme": "Education/Skills/Research", "region": "South America" }, "geometry": null },
{ "type": "Feature", "properties": { "title": "EU-Latin America and Caribbean Digital Alliance", "theme": "Infrastructure", "region": "South America" }, "geometry": null },
{ "type": "Feature", "properties": { "title": "EU-Latin America and Caribbean Digital Alliance", "theme": "Regulation/Governance/Political", "region": "South America" }, "geometry": null },
{ "type": "Feature", "properties": { "title": "EU-Latin America and Caribbean Digital Alliance", "theme": "Education/Skills/Research", "region": "South America" }, "geometry": null },
{ "type": "Feature", "properties": { "title": "SPIDER EU-LAC Digital Partnership", "theme": "Regulation/Governance/Political", "region": "South America" }, "geometry": null },
{ "type": "Feature", "properties": { "title": "SPIDER EU-LAC Digital Partnership", "theme": "Education/Skills/Research", "region": "South America" }, "geometry": null },
{ "type": "Feature", "properties": { "title": "BELLA", "theme": "Infrastructure", "region": "South America" }, "geometry": null },
{ "type": "Feature", "properties": { "title": "Colombia Digital Economy Package", "theme": "Infrastructure", "region": "South America" }, "geometry": null },
{ "type": "Feature", "properties": { "title": "Colombia Digital Economy Package", "theme": "Regulation/Governance/Political", "region": "South America" }, "geometry": null },
{ "type": "Feature", "properties": { "title": "Colombia Digital Economy Package", "theme": "Education/Skills/Research", "region": "South America" }, "geometry": null },
{ "type": "Feature", "properties": { "title": "Colombia Digital Economy Package", "theme": "Cybersecurity/Cybercrime", "region": "South America" }, "geometry": null },
{ "type": "Feature", "properties": { "title": "EU-Chile FTA", "theme": "Regulation/Governance/Political", "region": "South America" }, "geometry": null },
{ "type": "Feature", "properties": { "title": "Paz Total Connectivity in Colombia", "theme": "Infrastructure", "region": "South America" }, "geometry": null },
{ "type": "Feature", "properties": { "title": "Paz Total Connectivity in Colombia", "theme": "Education/Skills/Research", "region": "South America" }, "geometry": null },
{ "type": "Feature", "properties": { "title": "CopernicusLAC Chile Centre AND Panama", "theme": "Infrastructure", "region": "South America" }, "geometry": null },
{ "type": "Feature", "properties": { "title": "EU-Costa Rica MoU on satellite connectivity", "theme": "Infrastructure", "region": "South America" }, "geometry": null },
{ "type": "Feature", "properties": { "title": "LAC4", "theme": "Education/Skills/Research", "region": "South America" }, "geometry": null },
{ "type": "Feature", "properties": { "title": "EU-LAC Supercomputing Network", "theme": "Infrastructure", "region": "South America" }, "geometry": null },
{ "type": "Feature", "properties": { "title": "EU-LAC Supercomputing Network", "theme": "Education/Skills/Research", "region": "South America" }, "geometry": null },
{ "type": "Feature", "properties": { "title": "LAC Connectivity Toolbox Implementation Guidelines", "theme": "Regulation/Governance/Political", "region": "South America" }, "geometry": null },
{ "type": "Feature", "properties": { "title": "Central American Digital Trade Platform (PDCC)", "theme": "Infrastructure", "region": "South America" }, "geometry": null },
{ "type": "Feature", "properties": { "title": "Green Amazon/Amazonia Verde in Brazil", "theme": "Infrastructure", "region": "South America" }, "geometry": null },
{ "type": "Feature", "properties": { "title": "EU-LAC Digital Accelerator in Latin America and the Caribbean", "theme": "Education/Skills/Research", "region": "South America" }, "geometry": null },
{ "type": "Feature", "properties": { "title": "EU-LAC High-level Policy Dialogue", "theme": "Regulation/Governance/Political", "region": "South America" }, "geometry": null },
{ "type": "Feature", "properties": { "title": "EU-LAC Innovation Cooperation Initiative", "theme": "Education/Skills/Research", "region": "South America" }, "geometry": null },
{ "type": "Feature", "properties": { "title": "EU–CELAC Ministerial Meeting on Research and Innovation", "theme": "Regulation/Governance/Political", "region": "South America" }, "geometry": null },
{ "type": "Feature", "properties": { "title": "EU–CELAC Ministerial Meeting on Research and Innovation", "theme": "Education/Skills/Research", "region": "South America" }, "geometry": null },
{ "type": "Feature", "properties": { "title": "EL PAcCTO 1.0 and 2.0", "theme": "Regulation/Governance/Political", "region": "South America" }, "geometry": null },
{ "type": "Feature", "properties": { "title": "EL PAcCTO 1.0 and 2.0", "theme": "Education/Skills/Research", "region": "South America" }, "geometry": null },
{ "type": "Feature", "properties": { "title": "EL PAcCTO 1.0 and 2.0", "theme": "Cybersecurity/Cybercrime", "region": "South America" }, "geometry": null },
{ "type": "Feature", "properties": { "title": "Fortalecimiento y Desarrollo de Capacidades en America Latina y el Caribe en Materia de Ciberseguridad", "theme": "Education/Skills/Research", "region": "South America" }, "geometry": null },
{ "type": "Feature", "properties": { "title": "Fortalecimiento y Desarrollo de Capacidades en America Latina y el Caribe en Materia de Ciberseguridad", "theme": "Education/Skills/Research", "region": "EU Neighbourhood Countries" }, "geometry": null },
{ "type": "Feature", "properties": { "title": "Fortalecimiento y Desarrollo de Capacidades en America Latina y el Caribe en Materia de Ciberseguridad", "theme": "Cybersecurity/Cybercrime", "region": "South America" }, "geometry": null },
{ "type": "Feature", "properties": { "title": "Fortalecimiento y Desarrollo de Capacidades en America Latina y el Caribe en Materia de Ciberseguridad", "theme": "Cybersecurity/Cybercrime", "region": "EU Neighbourhood Countries" }, "geometry": null },
{ "type": "Feature", "properties": { "title": "Democratic Republic of Congo Digital Economy Package", "theme": "Infrastructure", "region": "Sub-Saharan Africa" }, "geometry": null },
{ "type": "Feature", "properties": { "title": "Africa-Europe Digital Regulators Partnership in Sub-Saharan Africa", "theme": "Infrastructure", "region": "Sub-Saharan Africa" }, "geometry": null },
{ "type": "Feature", "properties": { "title": "AfricaConnect4 in Sub-Saharan Africa", "theme": "Infrastructure", "region": "Sub-Saharan Africa" }, "geometry": null },
{ "type": "Feature", "properties": { "title": "AfricaConnect4 in Sub-Saharan Africa", "theme": "Education/Skills/Research", "region": "Sub-Saharan Africa" }, "geometry": null },
{ "type": "Feature", "properties": { "title": "Construction of data center in Nouakchott and submarine cable in Mauritania", "theme": "Infrastructure", "region": "Sub-Saharan Africa" }, "geometry": null },
{ "type": "Feature", "properties": { "title": "Construction of fibre-optic cables in the Democratic Republic of Congo, Zambia, Zimbabwe, Malawi and Mozambique", "theme": "Infrastructure", "region": "Sub-Saharan Africa" }, "geometry": null },
{ "type": "Feature", "properties": { "title": "Rehabilitation and modernisation of the national transmission grid in Ethiopia", "theme": "Infrastructure", "region": "Sub-Saharan Africa" }, "geometry": null },
{ "type": "Feature", "properties": { "title": "Extension of digital connectivity in the Democratic Republic of Congo", "theme": "Infrastructure", "region": "Sub-Saharan Africa" }, "geometry": null },
{ "type": "Feature", "properties": { "title": "Extension of digital connectivity in the Democratic Republic of Congo", "theme": "Cybersecurity/Cybercrime", "region": "Sub-Saharan Africa" }, "geometry": null },
{ "type": "Feature", "properties": { "title": "Somalia connectivity expansion", "theme": "Infrastructure", "region": "Sub-Saharan Africa" }, "geometry": null },
{ "type": "Feature", "properties": { "title": "AI for Public Good", "theme": "Education/Skills/Research", "region": "South America" }, "geometry": null },
{ "type": "Feature", "properties": { "title": "AI for Public Good", "theme": "Education/Skills/Research", "region": "Indo-Pacific (includes South-East Asia)" }, "geometry": null },
{ "type": "Feature", "properties": { "title": "AI for Public Good", "theme": "Education/Skills/Research", "region": "North-East Asia" }, "geometry": null },
{ "type": "Feature", "properties": { "title": "AI for Public Good", "theme": "Education/Skills/Research", "region": "Central Asia" }, "geometry": null },
{ "type": "Feature", "properties": { "title": "AI for Public Good", "theme": "Education/Skills/Research", "region": "MENA" }, "geometry": null },
{ "type": "Feature", "properties": { "title": "AI for Public Good", "theme": "Education/Skills/Research", "region": "Sub-Saharan Africa" }, "geometry": null },
{ "type": "Feature", "properties": { "title": "AI for Public Good", "theme": "Education/Skills/Research", "region": "EU Neighbourhood Countries" }, "geometry": null },
{ "type": "Feature", "properties": { "title": "International Network of AI Safety Institutes", "theme": "Regulation/Governance/Political", "region": "Global" }, "geometry": null },
{ "type": "Feature", "properties": { "title": "International Network of AI Safety Institutes", "theme": "Regulation/Governance/Political", "region": "North America" }, "geometry": null },
{ "type": "Feature", "properties": { "title": "International Network of AI Safety Institutes", "theme": "Regulation/Governance/Political", "region": "Indo-Pacific (includes South-East Asia)" }, "geometry": null },
{ "type": "Feature", "properties": { "title": "International Network of AI Safety Institutes", "theme": "Regulation/Governance/Political", "region": "North-East Asia" }, "geometry": null },
{ "type": "Feature", "properties": { "title": "International Network of AI Safety Institutes", "theme": "Regulation/Governance/Political", "region": "Sub-Saharan Africa" }, "geometry": null },
{ "type": "Feature", "properties": { "title": "International Network of AI Safety Institutes", "theme": "Regulation/Governance/Political", "region": "EU Neighbourhood Countries" }, "geometry": null },
{ "type": "Feature", "properties": { "title": "International Network of AI Safety Institutes", "theme": "Education/Skills/Research", "region": "Global" }, "geometry": null },
{ "type": "Feature", "properties": { "title": "International Network of AI Safety Institutes", "theme": "Education/Skills/Research", "region": "North America" }, "geometry": null },
{ "type": "Feature", "properties": { "title": "International Network of AI Safety Institutes", "theme": "Education/Skills/Research", "region": "Indo-Pacific (includes South-East Asia)" }, "geometry": null },
{ "type": "Feature", "properties": { "title": "International Network of AI Safety Institutes", "theme": "Education/Skills/Research", "region": "North-East Asia" }, "geometry": null },
{ "type": "Feature", "properties": { "title": "International Network of AI Safety Institutes", "theme": "Education/Skills/Research", "region": "Sub-Saharan Africa" }, "geometry": null },
{ "type": "Feature", "properties": { "title": "International Network of AI Safety Institutes", "theme": "Education/Skills/Research", "region": "EU Neighbourhood Countries" }, "geometry": null },
{ "type": "Feature", "properties": { "title": "Kenya Digital Economy Package", "theme": "Infrastructure", "region": "Sub-Saharan Africa" }, "geometry": null },
{ "type": "Feature", "properties": { "title": "Kenya Digital Economy Package", "theme": "Regulation/Governance/Political", "region": "Sub-Saharan Africa" }, "geometry": null },
{ "type": "Feature", "properties": { "title": "Kenya Digital Economy Package", "theme": "Education/Skills/Research", "region": "Sub-Saharan Africa" }, "geometry": null },
{ "type": "Feature", "properties": { "title": "Nigeria Digital Economy Package", "theme": "Infrastructure", "region": "Sub-Saharan Africa" }, "geometry": null },
{ "type": "Feature", "properties": { "title": "Nigeria Digital Economy Package", "theme": "Education/Skills/Research", "region": "Sub-Saharan Africa" }, "geometry": null },
{ "type": "Feature", "properties": { "title": "Nigeria Digital Economy Package", "theme": "Cybersecurity/Cybercrime", "region": "Sub-Saharan Africa" }, "geometry": null },
{ "type": "Feature", "properties": { "title": "AI Hub for Sustainable Development and AI collaboration with Smart Africa", "theme": "Education/Skills/Research", "region": "Sub-Saharan Africa" }, "geometry": null },
{ "type": "Feature", "properties": { "title": "Africa-EU space partnership programme", "theme": "Regulation/Governance/Political", "region": "Sub-Saharan Africa" }, "geometry": null },
{ "type": "Feature", "properties": { "title": "Africa-EU space partnership programme", "theme": "Regulation/Governance/Political", "region": "EU Neighbourhood Countries" }, "geometry": null },
{ "type": "Feature", "properties": { "title": "Africa-EU space partnership programme", "theme": "Education/Skills/Research", "region": "Sub-Saharan Africa" }, "geometry": null },
{ "type": "Feature", "properties": { "title": "Africa-EU space partnership programme", "theme": "Education/Skills/Research", "region": "EU Neighbourhood Countries" }, "geometry": null },
{ "type": "Feature", "properties": { "title": "EAC DPI Acceleration Mechanism (DPI-AM)", "theme": "Infrastructure", "region": "Sub-Saharan Africa" }, "geometry": null },
{ "type": "Feature", "properties": { "title": "EAC DPI Acceleration Mechanism (DPI-AM)", "theme": "Education/Skills/Research", "region": "Sub-Saharan Africa" }, "geometry": null },
{ "type": "Feature", "properties": { "title": "iPRIS: ICT Policy & Regulation - Institutional Strengthening", "theme": "Regulation/Governance/Political", "region": "Sub-Saharan Africa" }, "geometry": null },
{ "type": "Feature", "properties": { "title": "iPRIS: ICT Policy & Regulation - Institutional Strengthening", "theme": "Education/Skills/Research", "region": "Sub-Saharan Africa" }, "geometry": null },
{ "type": "Feature", "properties": { "title": "Data Governance in Africa", "theme": "Regulation/Governance/Political", "region": "MENA" }, "geometry": null },
{ "type": "Feature", "properties": { "title": "Data Governance in Africa", "theme": "Regulation/Governance/Political", "region": "Sub-Saharan Africa" }, "geometry": null },
{ "type": "Feature", "properties": { "title": "Data Governance in Africa", "theme": "Education/Skills/Research", "region": "MENA" }, "geometry": null },
{ "type": "Feature", "properties": { "title": "Data Governance in Africa", "theme": "Education/Skills/Research", "region": "Sub-Saharan Africa" }, "geometry": null },
{ "type": "Feature", "properties": { "title": "Criminal Justice Response to Terrorism (CT JUST)", "theme": "Regulation/Governance/Political", "region": "MENA" }, "geometry": null },
{ "type": "Feature", "properties": { "title": "Criminal Justice Response to Terrorism (CT JUST)", "theme": "Regulation/Governance/Political", "region": "Sub-Saharan Africa" }, "geometry": null },
{ "type": "Feature", "properties": { "title": "Criminal Justice Response to Terrorism (CT JUST)", "theme": "Education/Skills/Research", "region": "MENA" }, "geometry": null },
{ "type": "Feature", "properties": { "title": "Criminal Justice Response to Terrorism (CT JUST)", "theme": "Education/Skills/Research", "region": "Sub-Saharan Africa" }, "geometry": null },
{ "type": "Feature", "properties": { "title": "Criminal Justice Response to Terrorism (CT JUST)", "theme": "Security/Military/Defence", "region": "MENA" }, "geometry": null },
{ "type": "Feature", "properties": { "title": "Criminal Justice Response to Terrorism (CT JUST)", "theme": "Security/Military/Defence", "region": "Sub-Saharan Africa" }, "geometry": null },
{ "type": "Feature", "properties": { "title": "Countering Illicit Trafficking and Transnational Organised Crime in Africa - Component 3: Cybercrime", "theme": "Regulation/Governance/Political", "region": "MENA" }, "geometry": null },
{ "type": "Feature", "properties": { "title": "Countering Illicit Trafficking and Transnational Organised Crime in Africa - Component 3: Cybercrime", "theme": "Regulation/Governance/Political", "region": "Sub-Saharan Africa" }, "geometry": null },
{ "type": "Feature", "properties": { "title": "Countering Illicit Trafficking and Transnational Organised Crime in Africa - Component 3: Cybercrime", "theme": "Education/Skills/Research", "region": "MENA" }, "geometry": null },
{ "type": "Feature", "properties": { "title": "Countering Illicit Trafficking and Transnational Organised Crime in Africa - Component 3: Cybercrime", "theme": "Education/Skills/Research", "region": "Sub-Saharan Africa" }, "geometry": null },
{ "type": "Feature", "properties": { "title": "Countering Illicit Trafficking and Transnational Organised Crime in Africa - Component 3: Cybercrime", "theme": "Security/Military/Defence", "region": "MENA" }, "geometry": null },
{ "type": "Feature", "properties": { "title": "Countering Illicit Trafficking and Transnational Organised Crime in Africa - Component 3: Cybercrime", "theme": "Security/Military/Defence", "region": "Sub-Saharan Africa" }, "geometry": null },
{ "type": "Feature", "properties": { "title": "EU US Joint Guidance or Online Platforms on Protecting Human Rights Defenders Online", "theme": "Regulation/Governance/Political", "region": "North America" }, "geometry": null },
{ "type": "Feature", "properties": { "title": "BraveTechEU", "theme": "Security/Military/Defence", "region": "EU Neighbourhood Countries" }, "geometry": null }
]
}
